[
 {
   "MOE ID": 12008,
   "AQHI STATION NAME": "Windsor Downtown",
   "LATITUDE": "42.315778",
   "LONGITUDE": -83.043667
 },
 {
   "MOE ID": 12016,
   "AQHI STATION NAME": "Windsor West",
   "LATITUDE": "42.292889",
   "LONGITUDE": -83.073139
 },
 {
   "MOE ID": 13001,
   "AQHI STATION NAME": "Chatham",
   "LATITUDE": "42.403694",
   "LONGITUDE": -82.208306
 },
 {
   "MOE ID": 14111,
   "AQHI STATION NAME": "Sarnia",
   "LATITUDE": "42.990263",
   "LONGITUDE": -82.395341
 },
 {
   "MOE ID": 15020,
   "AQHI STATION NAME": "Grand Bend ",
   "LATITUDE": "43.333083",
   "LONGITUDE": -81.742889
 },
 {
   "MOE ID": 15026,
   "AQHI STATION NAME": "London",
   "LATITUDE": "42.97446",
   "LONGITUDE": -81.200858
 },
 {
   "MOE ID": 16015,
   "AQHI STATION NAME": "Port Stanley ",
   "LATITUDE": "42.672083",
   "LONGITUDE": -81.162889
 },
 {
   "MOE ID": 18007,
   "AQHI STATION NAME": "Tiverton ",
   "LATITUDE": "44.314472",
   "LONGITUDE": -81.549722
 },
 {
   "MOE ID": 21005,
   "AQHI STATION NAME": "Brantford",
   "LATITUDE": "43.138611",
   "LONGITUDE": -80.292639
 },
 {
   "MOE ID": 26060,
   "AQHI STATION NAME": "Kitchener",
   "LATITUDE": "43.443833",
   "LONGITUDE": -80.503806
 },
 {
   "MOE ID": 27067,
   "AQHI STATION NAME": "St. Catharines",
   "LATITUDE": "43.160056",
   "LONGITUDE": -79.23475
 },
 {
   "MOE ID": 28028,
   "AQHI STATION NAME": "Guelph",
   "LATITUDE": "43.551611",
   "LONGITUDE": -80.264167
 },
 {
   "MOE ID": 29000,
   "AQHI STATION NAME": "Hamilton Downtown",
   "LATITUDE": "43.257778",
   "LONGITUDE": -79.861667
 },
 {
   "MOE ID": 29114,
   "AQHI STATION NAME": "Hamilton Mountain",
   "LATITUDE": "43.229417",
   "LONGITUDE": -79.862778
 },
 {
   "MOE ID": 29118,
   "AQHI STATION NAME": "Hamilton West",
   "LATITUDE": "43.257444",
   "LONGITUDE": -79.90775
 },
 {
   "MOE ID": 31129,
   "AQHI STATION NAME": "Toronto Downtown",
   "LATITUDE": "43.64543",
   "LONGITUDE": -79.38908
 },
 {
   "MOE ID": 33003,
   "AQHI STATION NAME": "Toronto East",
   "LATITUDE": "43.747917",
   "LONGITUDE": -79.274056
 },
 {
   "MOE ID": 34021,
   "AQHI STATION NAME": "Toronto North",
   "LATITUDE": "43.78047",
   "LONGITUDE": -79.467372
 },
 {
   "MOE ID": 35033,
   "AQHI STATION NAME": "Etobicoke South",
   "LATITUDE": "43.610861",
   "LONGITUDE": -79.52194
 },
 {
   "MOE ID": 35125,
   "AQHI STATION NAME": "Toronto West",
   "LATITUDE": "43.709444",
   "LONGITUDE": -79.5435
 },
 {
   "MOE ID": 44008,
   "AQHI STATION NAME": "Burlington",
   "LATITUDE": "43.315111",
   "LONGITUDE": -79.802639
 },
 {
   "MOE ID": 44017,
   "AQHI STATION NAME": "Oakville",
   "LATITUDE": "43.486917",
   "LONGITUDE": -79.702278
 },
 {
   "MOE ID": 45027,
   "AQHI STATION NAME": "Oshawa",
   "LATITUDE": "43.95222",
   "LONGITUDE": -78.9125
 },
 {
   "MOE ID": 44029,
   "AQHI STATION NAME": "Milton",
   "LATITUDE": "43.52965",
   "LONGITUDE": -79.862449
 },
 {
   "MOE ID": 46090,
   "AQHI STATION NAME": "Brampton",
   "LATITUDE": "43.669911",
   "LONGITUDE": -79.766589
 },
 {
   "MOE ID": 46108,
   "AQHI STATION NAME": "Mississauga",
   "LATITUDE": "43.54697",
   "LONGITUDE": -79.65869
 },
 {
   "MOE ID": 47045,
   "AQHI STATION NAME": "Barrie",
   "LATITUDE": "44.382361",
   "LONGITUDE": -79.702306
 },
 {
   "MOE ID": 48006,
   "AQHI STATION NAME": "Newmarket",
   "LATITUDE": "44.044306",
   "LONGITUDE": -79.48325
 },
 {
   "MOE ID": 49005,
   "AQHI STATION NAME": "Parry Sound ",
   "LATITUDE": "45.338261",
   "LONGITUDE": -80.039269
 },
 {
   "MOE ID": 49010,
   "AQHI STATION NAME": "Dorset ",
   "LATITUDE": "45.224278",
   "LONGITUDE": -78.932944
 },
 {
   "MOE ID": 51001,
   "AQHI STATION NAME": "Ottawa Downtown",
   "LATITUDE": "45.434333",
   "LONGITUDE": -75.676
 },
 {
   "MOE ID": 51010,
   "AQHI STATION NAME": "Petawawa",
   "LATITUDE": "45.996722",
   "LONGITUDE": -77.441194
 },
 {
   "MOE ID": 52023,
   "AQHI STATION NAME": "Kingston",
   "LATITUDE": "44.219722",
   "LONGITUDE": -76.521111
 },
 {
   "MOE ID": 54012,
   "AQHI STATION NAME": "Belleville",
   "LATITUDE": "44.150528",
   "LONGITUDE": -77.3955
 },
 {
   "MOE ID": 56051,
   "AQHI STATION NAME": "Cornwall",
   "LATITUDE": "45.017972",
   "LONGITUDE": -74.735222
 },
 {
   "MOE ID": 59006,
   "AQHI STATION NAME": "Peterborough",
   "LATITUDE": "44.301917",
   "LONGITUDE": -78.346222
 },
 {
   "MOE ID": 63203,
   "AQHI STATION NAME": "Thunder Bay",
   "LATITUDE": "48.379389",
   "LONGITUDE": -89.290167
 },
 {
   "MOE ID": 71078,
   "AQHI STATION NAME": "Sault Ste. Marie",
   "LATITUDE": "46.533194",
   "LONGITUDE": -84.309917
 },
 {
   "MOE ID": 75010,
   "AQHI STATION NAME": "North Bay",
   "LATITUDE": "46.3225",
   "LONGITUDE": -79.4494444
 },
 {
   "MOE ID": 77233,
   "AQHI STATION NAME": "Sudbury",
   "LATITUDE": "46.49194",
   "LONGITUDE": -81.003105
 },
 {
   "MOE ID": 83126,
   "AQHI STATION NAME": "HWY 401",
   "LATITUDE": "43.710944",
   "LONGITUDE": -79.544111
 },
 {
   "MOE ID": 83132,
   "AQHI STATION NAME": "U of T",
   "LATITUDE": "43. 658996",
   "LONGITUDE": -79.39602
 },
 {
   "MOE ID": 83133,
   "AQHI STATION NAME": "Toronto Hanlan's Pt.",
   "LATITUDE": "43.77889",
   "LONGITUDE": -79.38878
 }
]